{
  "meta": {
    "city_second_over_first": 1.011,
    "cells_assessed": 2092,
    "emerging": 625,
    "cooling": 660,
    "note": "Retrospective trend over the data window (NOT a forecast); measured relative to the flat citywide baseline; provided dataset only."
  },
  "emerging": [
    {
      "rank": 1,
      "name": "Sahakar Nagar Road,  Fortuna Acacia",
      "lat": 13.0715,
      "lon": 77.588,
      "first": 349,
      "second": 933,
      "change": 584,
      "rel_growth": 2.64,
      "trend": "Emerging",
      "total": 1282,
      "impact_score": 881.4
    },
    {
      "rank": 2,
      "name": "BTP082 - KR Market Junction",
      "lat": 12.964,
      "lon": 77.577,
      "first": 320,
      "second": 702,
      "change": 382,
      "rel_growth": 2.17,
      "trend": "Emerging",
      "total": 1022,
      "impact_score": 1088.4
    },
    {
      "rank": 3,
      "name": "Sahakar Nagar Road,  Fortuna Acacia",
      "lat": 13.0705,
      "lon": 77.5875,
      "first": 159,
      "second": 503,
      "change": 344,
      "rel_growth": 3.13,
      "trend": "Emerging",
      "total": 662,
      "impact_score": 548.3
    },
    {
      "rank": 4,
      "name": "Sahakar Nagar Road,  Fortuna Acacia",
      "lat": 13.071,
      "lon": 77.588,
      "first": 196,
      "second": 524,
      "change": 328,
      "rel_growth": 2.64,
      "trend": "Emerging",
      "total": 720,
      "impact_score": 550.8
    },
    {
      "rank": 5,
      "name": "BTP082 - KR Market Junction",
      "lat": 12.9635,
      "lon": 77.5765,
      "first": 112,
      "second": 365,
      "change": 253,
      "rel_growth": 3.22,
      "trend": "Emerging",
      "total": 477,
      "impact_score": 527.4
    },
    {
      "rank": 6,
      "name": "BTP001 - 10th Cross, Dr. Rajkumar Road",
      "lat": 13.0085,
      "lon": 77.5545,
      "first": 319,
      "second": 552,
      "change": 233,
      "rel_growth": 1.71,
      "trend": "Emerging",
      "total": 871,
      "impact_score": 1184.3
    },
    {
      "rank": 7,
      "name": "Sahakar Nagar Road,  Olivia",
      "lat": 13.0715,
      "lon": 77.5885,
      "first": 134,
      "second": 343,
      "change": 209,
      "rel_growth": 2.53,
      "trend": "Emerging",
      "total": 477,
      "impact_score": 341.9
    },
    {
      "rank": 8,
      "name": "Neeladri Road,  Neeladri Nagar",
      "lat": 12.8415,
      "lon": 77.6475,
      "first": 52,
      "second": 259,
      "change": 207,
      "rel_growth": 4.93,
      "trend": "Emerging",
      "total": 311,
      "impact_score": 254.4
    },
    {
      "rank": 9,
      "name": "BTP082 - KR Market Junction",
      "lat": 12.964,
      "lon": 77.5765,
      "first": 214,
      "second": 416,
      "change": 202,
      "rel_growth": 1.92,
      "trend": "Emerging",
      "total": 630,
      "impact_score": 686.4
    },
    {
      "rank": 10,
      "name": "Outer Ring Road,  Soulspace Paradigm",
      "lat": 12.95,
      "lon": 77.6995,
      "first": 33,
      "second": 234,
      "change": 201,
      "rel_growth": 7.01,
      "trend": "Emerging",
      "total": 267,
      "impact_score": 1307.4
    },
    {
      "rank": 11,
      "name": "Kadubeesanahalli Underpass,  Kadubisanahalli Junction",
      "lat": 12.94,
      "lon": 77.6955,
      "first": 194,
      "second": 395,
      "change": 201,
      "rel_growth": 2.01,
      "trend": "Emerging",
      "total": 589,
      "impact_score": 2997.5
    },
    {
      "rank": 12,
      "name": "BTP044 - Sagar Theatre Junction",
      "lat": 12.973,
      "lon": 77.579,
      "first": 333,
      "second": 533,
      "change": 200,
      "rel_growth": 1.58,
      "trend": "Emerging",
      "total": 866,
      "impact_score": 740.8
    },
    {
      "rank": 13,
      "name": "BTP044 - Sagar Theatre Junction",
      "lat": 12.9735,
      "lon": 77.579,
      "first": 125,
      "second": 318,
      "change": 193,
      "rel_growth": 2.52,
      "trend": "Emerging",
      "total": 443,
      "impact_score": 525.4
    },
    {
      "rank": 14,
      "name": "MBT Road,  Devasandra Junction",
      "lat": 13.008,
      "lon": 77.6955,
      "first": 237,
      "second": 429,
      "change": 192,
      "rel_growth": 1.79,
      "trend": "Emerging",
      "total": 666,
      "impact_score": 972.7
    },
    {
      "rank": 15,
      "name": "New Horizon College Road,  New Horizon College of Engineering",
      "lat": 12.9345,
      "lon": 77.6905,
      "first": 48,
      "second": 237,
      "change": 189,
      "rel_growth": 4.88,
      "trend": "Emerging",
      "total": 285,
      "impact_score": 702.5
    },
    {
      "rank": 16,
      "name": "BTP082 - KR Market Junction",
      "lat": 12.9645,
      "lon": 77.576,
      "first": 199,
      "second": 378,
      "change": 179,
      "rel_growth": 1.88,
      "trend": "Emerging",
      "total": 577,
      "impact_score": 667.5
    },
    {
      "rank": 17,
      "name": "Sahakar Nagar Road,  Fortuna Acacia",
      "lat": 13.071,
      "lon": 77.5875,
      "first": 28,
      "second": 206,
      "change": 178,
      "rel_growth": 7.28,
      "trend": "Emerging",
      "total": 234,
      "impact_score": 183.8
    },
    {
      "rank": 18,
      "name": "BTP020 - Hosahalli Metro Station",
      "lat": 12.9745,
      "lon": 77.5465,
      "first": 35,
      "second": 211,
      "change": 176,
      "rel_growth": 5.96,
      "trend": "Emerging",
      "total": 246,
      "impact_score": 199.8
    },
    {
      "rank": 19,
      "name": "BTP020 - Hosahalli Metro Station",
      "lat": 12.9745,
      "lon": 77.5455,
      "first": 320,
      "second": 492,
      "change": 172,
      "rel_growth": 1.52,
      "trend": "Emerging",
      "total": 812,
      "impact_score": 568.7
    },
    {
      "rank": 20,
      "name": "BTP186 - 9th Cross, 4th Main, Jayanagar",
      "lat": 12.9395,
      "lon": 77.584,
      "first": 57,
      "second": 225,
      "change": 168,
      "rel_growth": 3.9,
      "trend": "Emerging",
      "total": 282,
      "impact_score": 187.4
    },
    {
      "rank": 21,
      "name": "Neeladri Road,  Ajmera Annex",
      "lat": 12.842,
      "lon": 77.646,
      "first": 125,
      "second": 291,
      "change": 166,
      "rel_growth": 2.3,
      "trend": "Emerging",
      "total": 416,
      "impact_score": 317.6
    },
    {
      "rank": 22,
      "name": "80 Feet Ring Road,  Orion",
      "lat": 13.011,
      "lon": 77.5545,
      "first": 155,
      "second": 319,
      "change": 164,
      "rel_growth": 2.04,
      "trend": "Emerging",
      "total": 474,
      "impact_score": 518.0
    },
    {
      "rank": 23,
      "name": "MBT Road,  Devasandra Junction",
      "lat": 13.0085,
      "lon": 77.6955,
      "first": 91,
      "second": 249,
      "change": 158,
      "rel_growth": 2.71,
      "trend": "Emerging",
      "total": 340,
      "impact_score": 730.9
    },
    {
      "rank": 24,
      "name": "BTP130 - GD Mara Junction",
      "lat": 12.9085,
      "lon": 77.6005,
      "first": 11,
      "second": 158,
      "change": 147,
      "rel_growth": 14.2,
      "trend": "Emerging",
      "total": 169,
      "impact_score": 121.2
    },
    {
      "rank": 25,
      "name": "Shri Ramalingeshwara Cave Temple Road,  Royal Meenakshi Mall",
      "lat": 12.8765,
      "lon": 77.5965,
      "first": 1,
      "second": 145,
      "change": 144,
      "rel_growth": 143.38,
      "trend": "Emerging",
      "total": 146,
      "impact_score": 98.7
    },
    {
      "rank": 26,
      "name": "Da Ra Bendre Road,  Renaissance Temple Apartment",
      "lat": 13.012,
      "lon": 77.5525,
      "first": 156,
      "second": 295,
      "change": 139,
      "rel_growth": 1.87,
      "trend": "Emerging",
      "total": 451,
      "impact_score": 626.5
    },
    {
      "rank": 27,
      "name": "BTP051 - Safina Plaza Junction",
      "lat": 12.9825,
      "lon": 77.6105,
      "first": 211,
      "second": 349,
      "change": 138,
      "rel_growth": 1.64,
      "trend": "Emerging",
      "total": 560,
      "impact_score": 649.1
    },
    {
      "rank": 28,
      "name": "BTP027 - Modi Bridge Junction",
      "lat": 12.9975,
      "lon": 77.5495,
      "first": 117,
      "second": 254,
      "change": 137,
      "rel_growth": 2.15,
      "trend": "Emerging",
      "total": 371,
      "impact_score": 393.6
    },
    {
      "rank": 29,
      "name": "Old Madras Road,  Gopalan Grand Mall",
      "lat": 12.994,
      "lon": 77.663,
      "first": 22,
      "second": 156,
      "change": 134,
      "rel_growth": 7.01,
      "trend": "Emerging",
      "total": 178,
      "impact_score": 129.3
    },
    {
      "rank": 30,
      "name": "BTP001 - 10th Cross, Dr. Rajkumar Road",
      "lat": 13.008,
      "lon": 77.555,
      "first": 63,
      "second": 192,
      "change": 129,
      "rel_growth": 3.01,
      "trend": "Emerging",
      "total": 255,
      "impact_score": 271.0
    },
    {
      "rank": 31,
      "name": "Sahakar Nagar Road,  Fortuna Acacia",
      "lat": 13.0705,
      "lon": 77.588,
      "first": 50,
      "second": 179,
      "change": 129,
      "rel_growth": 3.54,
      "trend": "Emerging",
      "total": 229,
      "impact_score": 191.0
    },
    {
      "rank": 32,
      "name": "BTP051 - Safina Plaza Junction",
      "lat": 12.981,
      "lon": 77.6095,
      "first": 186,
      "second": 315,
      "change": 129,
      "rel_growth": 1.67,
      "trend": "Emerging",
      "total": 501,
      "impact_score": 448.9
    },
    {
      "rank": 33,
      "name": "BTP044 - Sagar Theatre Junction",
      "lat": 12.974,
      "lon": 77.579,
      "first": 37,
      "second": 165,
      "change": 128,
      "rel_growth": 4.41,
      "trend": "Emerging",
      "total": 202,
      "impact_score": 332.9
    },
    {
      "rank": 34,
      "name": "BTP051 - Safina Plaza Junction",
      "lat": 12.982,
      "lon": 77.6105,
      "first": 134,
      "second": 261,
      "change": 127,
      "rel_growth": 1.93,
      "trend": "Emerging",
      "total": 395,
      "impact_score": 478.8
    },
    {
      "rank": 35,
      "name": "BTP023 - Mahalaxmi Layout Entrance",
      "lat": 13.008,
      "lon": 77.5485,
      "first": 76,
      "second": 200,
      "change": 124,
      "rel_growth": 2.6,
      "trend": "Emerging",
      "total": 276,
      "impact_score": 194.6
    },
    {
      "rank": 36,
      "name": "Bhadrappa Flyover,  Nagashetty Halli",
      "lat": 13.0475,
      "lon": 77.576,
      "first": 37,
      "second": 154,
      "change": 117,
      "rel_growth": 4.12,
      "trend": "Emerging",
      "total": 191,
      "impact_score": 227.9
    },
    {
      "rank": 37,
      "name": "BTP044 - Sagar Theatre Junction",
      "lat": 12.974,
      "lon": 77.5785,
      "first": 163,
      "second": 279,
      "change": 116,
      "rel_growth": 1.69,
      "trend": "Emerging",
      "total": 442,
      "impact_score": 757.1
    },
    {
      "rank": 38,
      "name": "BTP051 - Safina Plaza Junction",
      "lat": 12.9815,
      "lon": 77.61,
      "first": 170,
      "second": 284,
      "change": 114,
      "rel_growth": 1.65,
      "trend": "Emerging",
      "total": 454,
      "impact_score": 606.4
    },
    {
      "rank": 39,
      "name": "BTP080 - NR Road, SP Road Junction",
      "lat": 12.964,
      "lon": 77.584,
      "first": 108,
      "second": 219,
      "change": 111,
      "rel_growth": 2.01,
      "trend": "Emerging",
      "total": 327,
      "impact_score": 259.6
    },
    {
      "rank": 40,
      "name": "Outer Ring Road,  Vajram Onyx",
      "lat": 12.9325,
      "lon": 77.6885,
      "first": 55,
      "second": 165,
      "change": 110,
      "rel_growth": 2.97,
      "trend": "Emerging",
      "total": 220,
      "impact_score": 626.1
    },
    {
      "rank": 41,
      "name": "Outer Ring Road,  Venkatappa Colony",
      "lat": 13.0005,
      "lon": 77.6775,
      "first": 189,
      "second": 299,
      "change": 110,
      "rel_growth": 1.56,
      "trend": "Emerging",
      "total": 488,
      "impact_score": 1643.4
    },
    {
      "rank": 42,
      "name": "Outer Ring Road,  Saffron Square",
      "lat": 12.93,
      "lon": 77.685,
      "first": 23,
      "second": 132,
      "change": 109,
      "rel_growth": 5.68,
      "trend": "Emerging",
      "total": 155,
      "impact_score": 460.0
    },
    {
      "rank": 43,
      "name": "Unnamed Road,  Begur Chikkanahalli",
      "lat": 13.184,
      "lon": 77.6795,
      "first": 196,
      "second": 305,
      "change": 109,
      "rel_growth": 1.54,
      "trend": "Emerging",
      "total": 501,
      "impact_score": 1543.9
    },
    {
      "rank": 44,
      "name": "MBT Road,  Devasandra Junction",
      "lat": 13.008,
      "lon": 77.695,
      "first": 113,
      "second": 220,
      "change": 107,
      "rel_growth": 1.93,
      "trend": "Emerging",
      "total": 333,
      "impact_score": 472.5
    },
    {
      "rank": 45,
      "name": "Da Ra Bendre Road,  Orion",
      "lat": 13.0125,
      "lon": 77.554,
      "first": 66,
      "second": 173,
      "change": 107,
      "rel_growth": 2.59,
      "trend": "Emerging",
      "total": 239,
      "impact_score": 295.3
    },
    {
      "rank": 46,
      "name": "BTP020 - Hosahalli Metro Station",
      "lat": 12.9745,
      "lon": 77.546,
      "first": 93,
      "second": 199,
      "change": 106,
      "rel_growth": 2.12,
      "trend": "Emerging",
      "total": 292,
      "impact_score": 194.6
    },
    {
      "rank": 47,
      "name": "Sahakar Nagar Road,  Fortuna Acacia",
      "lat": 13.0715,
      "lon": 77.5875,
      "first": 4,
      "second": 109,
      "change": 105,
      "rel_growth": 26.95,
      "trend": "Emerging",
      "total": 113,
      "impact_score": 85.1
    },
    {
      "rank": 48,
      "name": "Vibgyor High School Road,  Samhita Rainbow MTB Apartment",
      "lat": 12.9515,
      "lon": 77.7175,
      "first": 40,
      "second": 145,
      "change": 105,
      "rel_growth": 3.58,
      "trend": "Emerging",
      "total": 185,
      "impact_score": 772.6
    },
    {
      "rank": 49,
      "name": "BTP188 - 27th Cross, 4th Main, Jayanagar",
      "lat": 12.9295,
      "lon": 77.5805,
      "first": 36,
      "second": 140,
      "change": 104,
      "rel_growth": 3.85,
      "trend": "Emerging",
      "total": 176,
      "impact_score": 128.2
    },
    {
      "rank": 50,
      "name": "Bhadrappa Flyover,  Nagashetty Halli",
      "lat": 13.0475,
      "lon": 77.5755,
      "first": 16,
      "second": 118,
      "change": 102,
      "rel_growth": 7.29,
      "trend": "Emerging",
      "total": 134,
      "impact_score": 101.1
    },
    {
      "rank": 51,
      "name": "Old Madras Road,  Gopalan Grand Mall",
      "lat": 12.994,
      "lon": 77.6635,
      "first": 23,
      "second": 123,
      "change": 100,
      "rel_growth": 5.29,
      "trend": "Emerging",
      "total": 146,
      "impact_score": 104.0
    },
    {
      "rank": 52,
      "name": "Old Madras Road,  Royal Heritage",
      "lat": 12.996,
      "lon": 77.668,
      "first": 167,
      "second": 262,
      "change": 95,
      "rel_growth": 1.55,
      "trend": "Emerging",
      "total": 429,
      "impact_score": 1488.1
    },
    {
      "rank": 53,
      "name": "80 Feet Ring Road,  Orion",
      "lat": 13.0115,
      "lon": 77.5545,
      "first": 173,
      "second": 268,
      "change": 95,
      "rel_growth": 1.53,
      "trend": "Emerging",
      "total": 441,
      "impact_score": 498.0
    },
    {
      "rank": 54,
      "name": "BTP205 - Modi Hospital Junction",
      "lat": 12.9975,
      "lon": 77.548,
      "first": 127,
      "second": 221,
      "change": 94,
      "rel_growth": 1.72,
      "trend": "Emerging",
      "total": 348,
      "impact_score": 426.4
    },
    {
      "rank": 55,
      "name": "BTP123 - 10th Cross, Wilson Garden",
      "lat": 12.945,
      "lon": 77.595,
      "first": 30,
      "second": 121,
      "change": 91,
      "rel_growth": 3.99,
      "trend": "Emerging",
      "total": 151,
      "impact_score": 120.3
    },
    {
      "rank": 56,
      "name": "BTP130 - GD Mara Junction",
      "lat": 12.9075,
      "lon": 77.6,
      "first": 0,
      "second": 91,
      "change": 91,
      "rel_growth": 179.97,
      "trend": "Emerging",
      "total": 91,
      "impact_score": 57.8
    },
    {
      "rank": 57,
      "name": "Neeladri Road,  Ajmera Annex",
      "lat": 12.842,
      "lon": 77.6455,
      "first": 61,
      "second": 152,
      "change": 91,
      "rel_growth": 2.46,
      "trend": "Emerging",
      "total": 213,
      "impact_score": 199.2
    },
    {
      "rank": 58,
      "name": "BTP182 - 19th Main Junction, Rajajinagar",
      "lat": 12.995,
      "lon": 77.5515,
      "first": 2,
      "second": 92,
      "change": 90,
      "rel_growth": 45.49,
      "trend": "Emerging",
      "total": 94,
      "impact_score": 66.0
    },
    {
      "rank": 59,
      "name": "MBT Road,  Devasandra Junction",
      "lat": 13.0085,
      "lon": 77.6945,
      "first": 33,
      "second": 122,
      "change": 89,
      "rel_growth": 3.66,
      "trend": "Emerging",
      "total": 155,
      "impact_score": 352.6
    },
    {
      "rank": 60,
      "name": "BTP023 - Mahalaxmi Layout Entrance",
      "lat": 13.0085,
      "lon": 77.5485,
      "first": 83,
      "second": 172,
      "change": 89,
      "rel_growth": 2.05,
      "trend": "Emerging",
      "total": 255,
      "impact_score": 164.1
    },
    {
      "rank": 61,
      "name": "Kamaraj Road,  Sri Nagamma Devi Circle",
      "lat": 12.983,
      "lon": 77.6105,
      "first": 167,
      "second": 256,
      "change": 89,
      "rel_growth": 1.52,
      "trend": "Emerging",
      "total": 423,
      "impact_score": 381.6
    },
    {
      "rank": 62,
      "name": "Robertson Road,  Frazer Town",
      "lat": 12.997,
      "lon": 77.6145,
      "first": 1,
      "second": 88,
      "change": 87,
      "rel_growth": 87.02,
      "trend": "Emerging",
      "total": 89,
      "impact_score": 57.2
    },
    {
      "rank": 63,
      "name": "BTP017 - Attiguppe Circle",
      "lat": 12.9605,
      "lon": 77.529,
      "first": 38,
      "second": 125,
      "change": 87,
      "rel_growth": 3.25,
      "trend": "Emerging",
      "total": 163,
      "impact_score": 115.5
    },
    {
      "rank": 64,
      "name": "BTP001 - 10th Cross, Dr. Rajkumar Road",
      "lat": 13.003,
      "lon": 77.5535,
      "first": 6,
      "second": 93,
      "change": 87,
      "rel_growth": 15.33,
      "trend": "Emerging",
      "total": 99,
      "impact_score": 113.4
    },
    {
      "rank": 65,
      "name": "BTP211 - Central Street Junction",
      "lat": 12.9845,
      "lon": 77.605,
      "first": 68,
      "second": 154,
      "change": 86,
      "rel_growth": 2.24,
      "trend": "Emerging",
      "total": 222,
      "impact_score": 231.7
    },
    {
      "rank": 66,
      "name": "Srinivagilu Main Road,  ST Bed Layout Extension",
      "lat": 12.932,
      "lon": 77.632,
      "first": 18,
      "second": 99,
      "change": 81,
      "rel_growth": 5.44,
      "trend": "Emerging",
      "total": 117,
      "impact_score": 152.7
    },
    {
      "rank": 67,
      "name": "MBT Road,  Royal Heritage",
      "lat": 12.9965,
      "lon": 77.6685,
      "first": 28,
      "second": 108,
      "change": 80,
      "rel_growth": 3.81,
      "trend": "Emerging",
      "total": 136,
      "impact_score": 581.6
    },
    {
      "rank": 68,
      "name": "Siddavanahalli Krishna Sharma Road,  Parisara Organic Junction",
      "lat": 12.999,
      "lon": 77.5695,
      "first": 69,
      "second": 148,
      "change": 79,
      "rel_growth": 2.12,
      "trend": "Emerging",
      "total": 217,
      "impact_score": 304.5
    },
    {
      "rank": 69,
      "name": "BTP024 - NPS, Vijayanagar",
      "lat": 12.9835,
      "lon": 77.549,
      "first": 2,
      "second": 81,
      "change": 79,
      "rel_growth": 40.05,
      "trend": "Emerging",
      "total": 83,
      "impact_score": 73.2
    },
    {
      "rank": 70,
      "name": "Outer Ring Road,  Soulspace Paradigm",
      "lat": 12.9495,
      "lon": 77.6995,
      "first": 8,
      "second": 84,
      "change": 76,
      "rel_growth": 10.38,
      "trend": "Emerging",
      "total": 92,
      "impact_score": 358.0
    },
    {
      "rank": 71,
      "name": "Bhadrappa Flyover,  Nagashetty Halli",
      "lat": 13.0475,
      "lon": 77.5765,
      "first": 66,
      "second": 140,
      "change": 74,
      "rel_growth": 2.1,
      "trend": "Emerging",
      "total": 206,
      "impact_score": 182.9
    },
    {
      "rank": 72,
      "name": "BTP082 - KR Market Junction",
      "lat": 12.965,
      "lon": 77.5755,
      "first": 44,
      "second": 116,
      "change": 72,
      "rel_growth": 2.61,
      "trend": "Emerging",
      "total": 160,
      "impact_score": 181.3
    },
    {
      "rank": 73,
      "name": "Da Ra Bendre Road,  Phoenix Kessaku",
      "lat": 13.012,
      "lon": 77.553,
      "first": 79,
      "second": 150,
      "change": 71,
      "rel_growth": 1.88,
      "trend": "Emerging",
      "total": 229,
      "impact_score": 335.8
    },
    {
      "rank": 74,
      "name": "BTP027 - Modi Bridge Junction",
      "lat": 12.9975,
      "lon": 77.55,
      "first": 90,
      "second": 160,
      "change": 70,
      "rel_growth": 1.76,
      "trend": "Emerging",
      "total": 250,
      "impact_score": 334.1
    },
    {
      "rank": 75,
      "name": "BTP082 - KR Market Junction",
      "lat": 12.9645,
      "lon": 77.5775,
      "first": 130,
      "second": 200,
      "change": 70,
      "rel_growth": 1.52,
      "trend": "Emerging",
      "total": 330,
      "impact_score": 354.1
    },
    {
      "rank": 76,
      "name": "80 Feet Road,  Ashwath Nagar",
      "lat": 13.027,
      "lon": 77.5795,
      "first": 17,
      "second": 86,
      "change": 69,
      "rel_growth": 5.0,
      "trend": "Emerging",
      "total": 103,
      "impact_score": 124.6
    },
    {
      "rank": 77,
      "name": "SGR Dental College Road,  Sharadamma Layout",
      "lat": 12.95,
      "lon": 77.7,
      "first": 10,
      "second": 78,
      "change": 68,
      "rel_growth": 7.71,
      "trend": "Emerging",
      "total": 88,
      "impact_score": 401.8
    },
    {
      "rank": 78,
      "name": "Gundappa Road,  Nagashetty Halli",
      "lat": 13.047,
      "lon": 77.5755,
      "first": 12,
      "second": 80,
      "change": 68,
      "rel_growth": 6.59,
      "trend": "Emerging",
      "total": 92,
      "impact_score": 65.8
    },
    {
      "rank": 79,
      "name": "New Police Station Road,  KV Muniyappa Layout",
      "lat": 13.0095,
      "lon": 77.693,
      "first": 4,
      "second": 72,
      "change": 68,
      "rel_growth": 17.8,
      "trend": "Emerging",
      "total": 76,
      "impact_score": 99.4
    },
    {
      "rank": 80,
      "name": "BTP001 - 10th Cross, Dr. Rajkumar Road",
      "lat": 13.008,
      "lon": 77.5545,
      "first": 102,
      "second": 169,
      "change": 67,
      "rel_growth": 1.64,
      "trend": "Emerging",
      "total": 271,
      "impact_score": 393.9
    },
    {
      "rank": 81,
      "name": "Chord Road,  World Trade Centre",
      "lat": 13.013,
      "lon": 77.5545,
      "first": 113,
      "second": 180,
      "change": 67,
      "rel_growth": 1.58,
      "trend": "Emerging",
      "total": 293,
      "impact_score": 461.2
    },
    {
      "rank": 82,
      "name": "4th Main Road,  Sri Basaveshwara HBCS",
      "lat": 12.961,
      "lon": 77.5275,
      "first": 56,
      "second": 122,
      "change": 66,
      "rel_growth": 2.15,
      "trend": "Emerging",
      "total": 178,
      "impact_score": 130.6
    },
    {
      "rank": 83,
      "name": "BTP068 - Veeresh Theatre Junction",
      "lat": 12.977,
      "lon": 77.5455,
      "first": 42,
      "second": 107,
      "change": 65,
      "rel_growth": 2.52,
      "trend": "Emerging",
      "total": 149,
      "impact_score": 118.8
    },
    {
      "rank": 84,
      "name": "BTP082 - KR Market Junction",
      "lat": 12.9635,
      "lon": 77.5775,
      "first": 101,
      "second": 164,
      "change": 63,
      "rel_growth": 1.61,
      "trend": "Emerging",
      "total": 265,
      "impact_score": 438.8
    },
    {
      "rank": 85,
      "name": "BTP023 - Mahalaxmi Layout Entrance",
      "lat": 13.0075,
      "lon": 77.549,
      "first": 2,
      "second": 65,
      "change": 63,
      "rel_growth": 32.14,
      "trend": "Emerging",
      "total": 67,
      "impact_score": 462.2
    },
    {
      "rank": 86,
      "name": "BTP027 - Modi Bridge Junction",
      "lat": 13.0005,
      "lon": 77.5495,
      "first": 36,
      "second": 98,
      "change": 62,
      "rel_growth": 2.69,
      "trend": "Emerging",
      "total": 134,
      "impact_score": 113.2
    },
    {
      "rank": 87,
      "name": "BTP082 - KR Market Junction",
      "lat": 12.9645,
      "lon": 77.5755,
      "first": 58,
      "second": 119,
      "change": 61,
      "rel_growth": 2.03,
      "trend": "Emerging",
      "total": 177,
      "impact_score": 295.2
    },
    {
      "rank": 88,
      "name": "BTP080 - NR Road, SP Road Junction",
      "lat": 12.9635,
      "lon": 77.581,
      "first": 33,
      "second": 94,
      "change": 61,
      "rel_growth": 2.82,
      "trend": "Emerging",
      "total": 127,
      "impact_score": 236.1
    },
    {
      "rank": 89,
      "name": "Veera Pillai Road,  Sri Nagamma Devi Circle",
      "lat": 12.9825,
      "lon": 77.612,
      "first": 55,
      "second": 115,
      "change": 60,
      "rel_growth": 2.07,
      "trend": "Emerging",
      "total": 170,
      "impact_score": 227.8
    },
    {
      "rank": 90,
      "name": "Banaswadi Main Road,  Prestige Woodland Park",
      "lat": 12.9995,
      "lon": 77.625,
      "first": 2,
      "second": 61,
      "change": 59,
      "rel_growth": 30.16,
      "trend": "Emerging",
      "total": 63,
      "impact_score": 97.6
    },
    {
      "rank": 91,
      "name": "BTP074 - Leprosy Hospital Junction",
      "lat": 12.9755,
      "lon": 77.5615,
      "first": 59,
      "second": 118,
      "change": 59,
      "rel_growth": 1.98,
      "trend": "Emerging",
      "total": 177,
      "impact_score": 206.9
    },
    {
      "rank": 92,
      "name": "J Lingaiah Road,  Kempanna Block",
      "lat": 12.9985,
      "lon": 77.582,
      "first": 12,
      "second": 71,
      "change": 59,
      "rel_growth": 5.85,
      "trend": "Emerging",
      "total": 83,
      "impact_score": 67.4
    },
    {
      "rank": 93,
      "name": "MBT Road,  Devasandra Junction",
      "lat": 13.008,
      "lon": 77.696,
      "first": 71,
      "second": 129,
      "change": 58,
      "rel_growth": 1.8,
      "trend": "Emerging",
      "total": 200,
      "impact_score": 413.8
    },
    {
      "rank": 94,
      "name": "Hosapalya Main Road,  S Nazir Sab Layout",
      "lat": 12.9065,
      "lon": 77.6315,
      "first": 13,
      "second": 71,
      "change": 58,
      "rel_growth": 5.4,
      "trend": "Emerging",
      "total": 84,
      "impact_score": 88.1
    },
    {
      "rank": 95,
      "name": "BTP044 - Sagar Theatre Junction",
      "lat": 12.976,
      "lon": 77.578,
      "first": 109,
      "second": 165,
      "change": 56,
      "rel_growth": 1.5,
      "trend": "Emerging",
      "total": 274,
      "impact_score": 251.3
    },
    {
      "rank": 96,
      "name": "Unnamed Road,  Begur Chikkanahalli",
      "lat": 13.186,
      "lon": 77.68,
      "first": 92,
      "second": 147,
      "change": 55,
      "rel_growth": 1.58,
      "trend": "Emerging",
      "total": 239,
      "impact_score": 661.2
    },
    {
      "rank": 97,
      "name": "4th Main Road,  Nagappa Block",
      "lat": 12.9965,
      "lon": 77.563,
      "first": 90,
      "second": 145,
      "change": 55,
      "rel_growth": 1.59,
      "trend": "Emerging",
      "total": 235,
      "impact_score": 201.5
    },
    {
      "rank": 98,
      "name": "Hosa Road,  Channakeshava Nagar",
      "lat": 12.8705,
      "lon": 77.654,
      "first": 2,
      "second": 56,
      "change": 54,
      "rel_growth": 27.69,
      "trend": "Emerging",
      "total": 58,
      "impact_score": 51.2
    },
    {
      "rank": 99,
      "name": "ITPL Main Road,  SJR Brooklyn Apartment",
      "lat": 12.9715,
      "lon": 77.712,
      "first": 42,
      "second": 96,
      "change": 54,
      "rel_growth": 2.26,
      "trend": "Emerging",
      "total": 138,
      "impact_score": 363.3
    },
    {
      "rank": 100,
      "name": "BTP123 - 10th Cross, Wilson Garden",
      "lat": 12.949,
      "lon": 77.598,
      "first": 0,
      "second": 53,
      "change": 53,
      "rel_growth": 104.82,
      "trend": "Emerging",
      "total": 53,
      "impact_score": 43.8
    },
    {
      "rank": 101,
      "name": "BTP130 - GD Mara Junction",
      "lat": 12.9085,
      "lon": 77.601,
      "first": 0,
      "second": 53,
      "change": 53,
      "rel_growth": 104.82,
      "trend": "Emerging",
      "total": 53,
      "impact_score": 56.6
    },
    {
      "rank": 102,
      "name": "Outer Ring Road,  Bellandur Circle",
      "lat": 12.926,
      "lon": 77.677,
      "first": 15,
      "second": 67,
      "change": 52,
      "rel_growth": 4.42,
      "trend": "Emerging",
      "total": 82,
      "impact_score": 120.4
    },
    {
      "rank": 103,
      "name": "Hosa Road,  Channakeshava Nagar",
      "lat": 12.87,
      "lon": 77.6535,
      "first": 1,
      "second": 52,
      "change": 51,
      "rel_growth": 51.42,
      "trend": "Emerging",
      "total": 53,
      "impact_score": 43.4
    },
    {
      "rank": 104,
      "name": "Unnamed Road,  Begur Chikkanahalli",
      "lat": 13.1845,
      "lon": 77.6795,
      "first": 77,
      "second": 127,
      "change": 50,
      "rel_growth": 1.63,
      "trend": "Emerging",
      "total": 204,
      "impact_score": 554.1
    },
    {
      "rank": 105,
      "name": "Whitefield Road,  Sadaramangala Industrial Area",
      "lat": 12.9875,
      "lon": 77.735,
      "first": 4,
      "second": 54,
      "change": 50,
      "rel_growth": 13.35,
      "trend": "Emerging",
      "total": 58,
      "impact_score": 148.6
    },
    {
      "rank": 106,
      "name": "Hosapalya Main Road,  BKL Colony",
      "lat": 12.9065,
      "lon": 77.631,
      "first": 7,
      "second": 57,
      "change": 50,
      "rel_growth": 8.05,
      "trend": "Emerging",
      "total": 64,
      "impact_score": 65.7
    },
    {
      "rank": 107,
      "name": "Bannerghatta Main Road,  Indian Institute of Management",
      "lat": 12.895,
      "lon": 77.599,
      "first": 14,
      "second": 63,
      "change": 49,
      "rel_growth": 4.45,
      "trend": "Emerging",
      "total": 77,
      "impact_score": 57.0
    },
    {
      "rank": 108,
      "name": "BTP069 - MC Circle",
      "lat": 12.9745,
      "lon": 77.547,
      "first": 61,
      "second": 110,
      "change": 49,
      "rel_growth": 1.78,
      "trend": "Emerging",
      "total": 171,
      "impact_score": 146.0
    },
    {
      "rank": 109,
      "name": "Gangadhara Chetty Road,  Sri Nagamma Devi Circle",
      "lat": 12.982,
      "lon": 77.6125,
      "first": 79,
      "second": 128,
      "change": 49,
      "rel_growth": 1.6,
      "trend": "Emerging",
      "total": 207,
      "impact_score": 291.9
    },
    {
      "rank": 110,
      "name": "1st Cross Road,  Jeevan Bima Nagar",
      "lat": 12.967,
      "lon": 77.658,
      "first": 1,
      "second": 50,
      "change": 49,
      "rel_growth": 49.44,
      "trend": "Emerging",
      "total": 51,
      "impact_score": 145.2
    },
    {
      "rank": 111,
      "name": "BTP061 - Bhashyam Circle",
      "lat": 12.985,
      "lon": 77.5535,
      "first": 27,
      "second": 76,
      "change": 49,
      "rel_growth": 2.78,
      "trend": "Emerging",
      "total": 103,
      "impact_score": 106.8
    },
    {
      "rank": 112,
      "name": "Outer Ring Road,  Sharadamma Layout",
      "lat": 12.9505,
      "lon": 77.7,
      "first": 13,
      "second": 62,
      "change": 49,
      "rel_growth": 4.72,
      "trend": "Emerging",
      "total": 75,
      "impact_score": 344.2
    },
    {
      "rank": 113,
      "name": "Outer Ring Road,  Prestige Silver Crest",
      "lat": 12.934,
      "lon": 77.69,
      "first": 10,
      "second": 58,
      "change": 48,
      "rel_growth": 5.74,
      "trend": "Emerging",
      "total": 68,
      "impact_score": 300.5
    },
    {
      "rank": 114,
      "name": "Whitefield Road,  Sadaramangala Industrial Area",
      "lat": 12.9875,
      "lon": 77.7345,
      "first": 3,
      "second": 51,
      "change": 48,
      "rel_growth": 16.81,
      "trend": "Emerging",
      "total": 54,
      "impact_score": 142.1
    },
    {
      "rank": 115,
      "name": "Outer Ring Road,  Salarpuria Sattva Supreme",
      "lat": 12.9525,
      "lon": 77.7,
      "first": 11,
      "second": 59,
      "change": 48,
      "rel_growth": 5.3,
      "trend": "Emerging",
      "total": 70,
      "impact_score": 348.6
    },
    {
      "rank": 116,
      "name": "BTP076 - Hudson Circle",
      "lat": 12.968,
      "lon": 77.5885,
      "first": 92,
      "second": 140,
      "change": 48,
      "rel_growth": 1.5,
      "trend": "Emerging",
      "total": 232,
      "impact_score": 220.7
    },
    {
      "rank": 117,
      "name": "Padmasri CK Venkata Ramaiah Road,  MS Ramaiah Hospital Junction",
      "lat": 13.029,
      "lon": 77.571,
      "first": 31,
      "second": 78,
      "change": 47,
      "rel_growth": 2.49,
      "trend": "Emerging",
      "total": 109,
      "impact_score": 89.7
    },
    {
      "rank": 118,
      "name": "Mysore Road,  Gopalan Arcade",
      "lat": 12.9365,
      "lon": 77.518,
      "first": 7,
      "second": 54,
      "change": 47,
      "rel_growth": 7.63,
      "trend": "Emerging",
      "total": 61,
      "impact_score": 61.6
    },
    {
      "rank": 119,
      "name": "BTP076 - Hudson Circle",
      "lat": 12.968,
      "lon": 77.589,
      "first": 14,
      "second": 61,
      "change": 47,
      "rel_growth": 4.31,
      "trend": "Emerging",
      "total": 75,
      "impact_score": 55.6
    },
    {
      "rank": 120,
      "name": "Jakkur Main Road,  Raitarasanthe",
      "lat": 13.097,
      "lon": 77.5995,
      "first": 79,
      "second": 126,
      "change": 47,
      "rel_growth": 1.58,
      "trend": "Emerging",
      "total": 205,
      "impact_score": 178.0
    },
    {
      "rank": 121,
      "name": "BTP070 - Cholurpalya Junction, Magadi Road",
      "lat": 12.9735,
      "lon": 77.55,
      "first": 16,
      "second": 63,
      "change": 47,
      "rel_growth": 3.89,
      "trend": "Emerging",
      "total": 79,
      "impact_score": 74.8
    },
    {
      "rank": 122,
      "name": "Outer Ring Road,  Vajram Onyx",
      "lat": 12.9315,
      "lon": 77.6875,
      "first": 5,
      "second": 52,
      "change": 47,
      "rel_growth": 10.28,
      "trend": "Emerging",
      "total": 57,
      "impact_score": 224.6
    },
    {
      "rank": 123,
      "name": "Dr Rajgopal Road,  Amar Jyothi Layout",
      "lat": 13.037,
      "lon": 77.5745,
      "first": 3,
      "second": 49,
      "change": 46,
      "rel_growth": 16.15,
      "trend": "Emerging",
      "total": 52,
      "impact_score": 54.4
    },
    {
      "rank": 124,
      "name": "Unnamed Road,  Begur Chikkanahalli",
      "lat": 13.1865,
      "lon": 77.68,
      "first": 26,
      "second": 72,
      "change": 46,
      "rel_growth": 2.74,
      "trend": "Emerging",
      "total": 98,
      "impact_score": 236.5
    },
    {
      "rank": 125,
      "name": "BTP041 - Gopal Gowda Circle",
      "lat": 12.9775,
      "lon": 77.591,
      "first": 23,
      "second": 69,
      "change": 46,
      "rel_growth": 2.97,
      "trend": "Emerging",
      "total": 92,
      "impact_score": 79.6
    },
    {
      "rank": 126,
      "name": "MBT Road,  Devasandra Junction",
      "lat": 13.0085,
      "lon": 77.695,
      "first": 42,
      "second": 88,
      "change": 46,
      "rel_growth": 2.07,
      "trend": "Emerging",
      "total": 130,
      "impact_score": 353.4
    },
    {
      "rank": 127,
      "name": "Outer Ring Road,  Venkatappa Colony",
      "lat": 13.0005,
      "lon": 77.678,
      "first": 41,
      "second": 86,
      "change": 45,
      "rel_growth": 2.07,
      "trend": "Emerging",
      "total": 127,
      "impact_score": 441.6
    },
    {
      "rank": 128,
      "name": "Magadi Main Road,  Hanumantharayan Palya",
      "lat": 12.9895,
      "lon": 77.5005,
      "first": 22,
      "second": 67,
      "change": 45,
      "rel_growth": 3.01,
      "trend": "Emerging",
      "total": 89,
      "impact_score": 59.5
    },
    {
      "rank": 129,
      "name": "18th Cross Road,  HSR Layout",
      "lat": 12.912,
      "lon": 77.6445,
      "first": 4,
      "second": 48,
      "change": 44,
      "rel_growth": 11.87,
      "trend": "Emerging",
      "total": 52,
      "impact_score": 52.5
    },
    {
      "rank": 130,
      "name": "Outer Ring Road,  Bellandur",
      "lat": 12.927,
      "lon": 77.679,
      "first": 56,
      "second": 100,
      "change": 44,
      "rel_growth": 1.77,
      "trend": "Emerging",
      "total": 156,
      "impact_score": 216.6
    },
    {
      "rank": 131,
      "name": "27th Cross Road,  Ramachandra Reddy Layout",
      "lat": 12.9035,
      "lon": 77.642,
      "first": 0,
      "second": 44,
      "change": 44,
      "rel_growth": 87.02,
      "trend": "Emerging",
      "total": 44,
      "impact_score": 95.9
    },
    {
      "rank": 132,
      "name": "BTP051 - Safina Plaza Junction",
      "lat": 12.9825,
      "lon": 77.606,
      "first": 33,
      "second": 77,
      "change": 44,
      "rel_growth": 2.31,
      "trend": "Emerging",
      "total": 110,
      "impact_score": 88.9
    },
    {
      "rank": 133,
      "name": "BTP207 - 8th Main Road Basaveshwara Nagar",
      "lat": 12.9915,
      "lon": 77.538,
      "first": 0,
      "second": 44,
      "change": 44,
      "rel_growth": 87.02,
      "trend": "Emerging",
      "total": 44,
      "impact_score": 33.4
    },
    {
      "rank": 134,
      "name": "BTP061 - Bhashyam Circle",
      "lat": 12.9855,
      "lon": 77.554,
      "first": 22,
      "second": 66,
      "change": 44,
      "rel_growth": 2.97,
      "trend": "Emerging",
      "total": 88,
      "impact_score": 98.6
    },
    {
      "rank": 135,
      "name": "Unnamed Road,  Begur Chikkanahalli",
      "lat": 13.1905,
      "lon": 77.6805,
      "first": 20,
      "second": 63,
      "change": 43,
      "rel_growth": 3.11,
      "trend": "Emerging",
      "total": 83,
      "impact_score": 127.2
    },
    {
      "rank": 136,
      "name": "Outer Ring Road,  Saffron Square",
      "lat": 12.93,
      "lon": 77.6855,
      "first": 43,
      "second": 86,
      "change": 43,
      "rel_growth": 1.98,
      "trend": "Emerging",
      "total": 129,
      "impact_score": 296.6
    },
    {
      "rank": 137,
      "name": "2nd Main Road,  Shree MG Seshadri Circle",
      "lat": 12.9895,
      "lon": 77.5735,
      "first": 26,
      "second": 69,
      "change": 43,
      "rel_growth": 2.62,
      "trend": "Emerging",
      "total": 95,
      "impact_score": 91.1
    },
    {
      "rank": 138,
      "name": "BTP207 - 8th Main Road Basaveshwara Nagar",
      "lat": 12.992,
      "lon": 77.5385,
      "first": 1,
      "second": 43,
      "change": 42,
      "rel_growth": 42.52,
      "trend": "Emerging",
      "total": 44,
      "impact_score": 47.4
    },
    {
      "rank": 139,
      "name": "BTP061 - Bhashyam Circle",
      "lat": 12.985,
      "lon": 77.554,
      "first": 8,
      "second": 50,
      "change": 42,
      "rel_growth": 6.18,
      "trend": "Emerging",
      "total": 58,
      "impact_score": 55.7
    },
    {
      "rank": 140,
      "name": "Chikka Begur Main Road,  Polisappa Layout",
      "lat": 12.887,
      "lon": 77.641,
      "first": 17,
      "second": 59,
      "change": 42,
      "rel_growth": 3.43,
      "trend": "Emerging",
      "total": 76,
      "impact_score": 135.8
    },
    {
      "rank": 141,
      "name": "Vibgyor High School Road,  Vaswani Brentwood",
      "lat": 12.9505,
      "lon": 77.7175,
      "first": 0,
      "second": 42,
      "change": 42,
      "rel_growth": 83.06,
      "trend": "Emerging",
      "total": 42,
      "impact_score": 119.5
    },
    {
      "rank": 142,
      "name": "Outer Ring Road,  Chandana",
      "lat": 12.9335,
      "lon": 77.689,
      "first": 3,
      "second": 45,
      "change": 42,
      "rel_growth": 14.83,
      "trend": "Emerging",
      "total": 48,
      "impact_score": 94.5
    },
    {
      "rank": 143,
      "name": "Srinivagilu Main Road,  ST Bed Layout Extension",
      "lat": 12.9315,
      "lon": 77.6325,
      "first": 1,
      "second": 43,
      "change": 42,
      "rel_growth": 42.52,
      "trend": "Emerging",
      "total": 44,
      "impact_score": 84.4
    },
    {
      "rank": 144,
      "name": "Lingarajapuram Flyover,  Old Bagalur Layout",
      "lat": 13.007,
      "lon": 77.6215,
      "first": 4,
      "second": 46,
      "change": 42,
      "rel_growth": 11.37,
      "trend": "Emerging",
      "total": 50,
      "impact_score": 63.6
    },
    {
      "rank": 145,
      "name": "BTP083 - AS Char Street, Mysore Road",
      "lat": 12.965,
      "lon": 77.575,
      "first": 55,
      "second": 97,
      "change": 42,
      "rel_growth": 1.74,
      "trend": "Emerging",
      "total": 152,
      "impact_score": 188.9
    },
    {
      "rank": 146,
      "name": "Gnana Bharathi Road,  Kendra Upadhyayara Sangha",
      "lat": 12.956,
      "lon": 77.5185,
      "first": 22,
      "second": 63,
      "change": 41,
      "rel_growth": 2.83,
      "trend": "Emerging",
      "total": 85,
      "impact_score": 76.2
    },
    {
      "rank": 147,
      "name": "Srinivagilu Main Road,  ST Bed Layout Extension",
      "lat": 12.933,
      "lon": 77.631,
      "first": 10,
      "second": 51,
      "change": 41,
      "rel_growth": 5.04,
      "trend": "Emerging",
      "total": 61,
      "impact_score": 68.0
    },
    {
      "rank": 148,
      "name": "Neeladri Road,  Himagiri Residency",
      "lat": 12.8415,
      "lon": 77.6445,
      "first": 44,
      "second": 85,
      "change": 41,
      "rel_growth": 1.91,
      "trend": "Emerging",
      "total": 129,
      "impact_score": 187.7
    },
    {
      "rank": 149,
      "name": "BTP208 - Havanur Circle",
      "lat": 12.988,
      "lon": 77.5375,
      "first": 42,
      "second": 83,
      "change": 41,
      "rel_growth": 1.95,
      "trend": "Emerging",
      "total": 125,
      "impact_score": 192.2
    },
    {
      "rank": 150,
      "name": "Dr Rajgopal Road,  Infantry Towers",
      "lat": 13.036,
      "lon": 77.575,
      "first": 0,
      "second": 41,
      "change": 41,
      "rel_growth": 81.09,
      "trend": "Emerging",
      "total": 41,
      "impact_score": 28.8
    },
    {
      "rank": 151,
      "name": "BTP208 - Havanur Circle",
      "lat": 12.9895,
      "lon": 77.538,
      "first": 24,
      "second": 65,
      "change": 41,
      "rel_growth": 2.68,
      "trend": "Emerging",
      "total": 89,
      "impact_score": 94.5
    },
    {
      "rank": 152,
      "name": "5th Main Road,  Dhondusa Layout",
      "lat": 12.9425,
      "lon": 77.5675,
      "first": 6,
      "second": 47,
      "change": 41,
      "rel_growth": 7.75,
      "trend": "Emerging",
      "total": 53,
      "impact_score": 68.4
    },
    {
      "rank": 153,
      "name": "Sri ML Subbaraju Road,  Mahatma Gandhi Circle",
      "lat": 12.976,
      "lon": 77.5995,
      "first": 5,
      "second": 45,
      "change": 40,
      "rel_growth": 8.9,
      "trend": "Emerging",
      "total": 50,
      "impact_score": 41.0
    },
    {
      "rank": 154,
      "name": "Devasandra Main Road,  Nanjamma Layout",
      "lat": 13.008,
      "lon": 77.6965,
      "first": 1,
      "second": 41,
      "change": 40,
      "rel_growth": 40.54,
      "trend": "Emerging",
      "total": 42,
      "impact_score": 188.4
    },
    {
      "rank": 155,
      "name": "BTP061 - Bhashyam Circle",
      "lat": 12.9845,
      "lon": 77.554,
      "first": 18,
      "second": 58,
      "change": 40,
      "rel_growth": 3.19,
      "trend": "Emerging",
      "total": 76,
      "impact_score": 79.9
    },
    {
      "rank": 156,
      "name": "Gnana Bharathi Road,  Manasa Layout",
      "lat": 12.957,
      "lon": 77.5185,
      "first": 19,
      "second": 58,
      "change": 39,
      "rel_growth": 3.02,
      "trend": "Emerging",
      "total": 77,
      "impact_score": 75.1
    },
    {
      "rank": 157,
      "name": "Vibgyor High School Road,  Samhita Rainbow MTB Apartment",
      "lat": 12.952,
      "lon": 77.7175,
      "first": 7,
      "second": 46,
      "change": 39,
      "rel_growth": 6.5,
      "trend": "Emerging",
      "total": 53,
      "impact_score": 197.2
    },
    {
      "rank": 158,
      "name": "Bellary Road,  Vinayaka Nagar",
      "lat": 13.036,
      "lon": 77.589,
      "first": 18,
      "second": 57,
      "change": 39,
      "rel_growth": 3.13,
      "trend": "Emerging",
      "total": 75,
      "impact_score": 88.4
    },
    {
      "rank": 159,
      "name": "Banaswadi Main Road,  Prestige Woodland Park",
      "lat": 12.999,
      "lon": 77.6245,
      "first": 3,
      "second": 42,
      "change": 39,
      "rel_growth": 13.84,
      "trend": "Emerging",
      "total": 45,
      "impact_score": 70.6
    },
    {
      "rank": 160,
      "name": "Sri Venkataranga Ayangar Road,  Malleshwaram Circle",
      "lat": 12.997,
      "lon": 77.5715,
      "first": 14,
      "second": 53,
      "change": 39,
      "rel_growth": 3.74,
      "trend": "Emerging",
      "total": 67,
      "impact_score": 88.5
    },
    {
      "rank": 161,
      "name": "Hosapalya Main Road,  BKL Colony",
      "lat": 12.9065,
      "lon": 77.6305,
      "first": 13,
      "second": 52,
      "change": 39,
      "rel_growth": 3.96,
      "trend": "Emerging",
      "total": 65,
      "impact_score": 78.8
    },
    {
      "rank": 162,
      "name": "Panathur Main Road,  Mariyappa Layout",
      "lat": 12.93,
      "lon": 77.695,
      "first": 2,
      "second": 40,
      "change": 38,
      "rel_growth": 19.78,
      "trend": "Emerging",
      "total": 42,
      "impact_score": 210.0
    },
    {
      "rank": 163,
      "name": "BTP108 - Tagore Park Junction",
      "lat": 12.9445,
      "lon": 77.571,
      "first": 38,
      "second": 76,
      "change": 38,
      "rel_growth": 1.98,
      "trend": "Emerging",
      "total": 114,
      "impact_score": 115.8
    },
    {
      "rank": 164,
      "name": "11th Cross Road,  Acharya Sri Ramanuja Circle",
      "lat": 13.002,
      "lon": 77.571,
      "first": 3,
      "second": 41,
      "change": 38,
      "rel_growth": 13.51,
      "trend": "Emerging",
      "total": 44,
      "impact_score": 41.2
    },
    {
      "rank": 165,
      "name": "Doddagubbi Road,  Chikka Aneppa Layout",
      "lat": 13.0605,
      "lon": 77.652,
      "first": 4,
      "second": 42,
      "change": 38,
      "rel_growth": 10.38,
      "trend": "Emerging",
      "total": 46,
      "impact_score": 49.6
    },
    {
      "rank": 166,
      "name": "Palace Road,  Kumar Park",
      "lat": 12.995,
      "lon": 77.5895,
      "first": 8,
      "second": 46,
      "change": 38,
      "rel_growth": 5.69,
      "trend": "Emerging",
      "total": 54,
      "impact_score": 33.9
    },
    {
      "rank": 167,
      "name": "BTP105 - Shivasankara Circle",
      "lat": 12.957,
      "lon": 77.5755,
      "first": 0,
      "second": 38,
      "change": 38,
      "rel_growth": 75.15,
      "trend": "Emerging",
      "total": 38,
      "impact_score": 24.5
    },
    {
      "rank": 168,
      "name": "Panathur Main Road,  Indiqube Alpha",
      "lat": 12.9395,
      "lon": 77.696,
      "first": 6,
      "second": 43,
      "change": 37,
      "rel_growth": 7.09,
      "trend": "Emerging",
      "total": 49,
      "impact_score": 216.8
    },
    {
      "rank": 169,
      "name": "BTP108 - Tagore Park Junction",
      "lat": 12.9425,
      "lon": 77.571,
      "first": 43,
      "second": 80,
      "change": 37,
      "rel_growth": 1.84,
      "trend": "Emerging",
      "total": 123,
      "impact_score": 99.9
    },
    {
      "rank": 170,
      "name": "Unnamed Road,  Begur Chikkanahalli",
      "lat": 13.1875,
      "lon": 77.6805,
      "first": 52,
      "second": 89,
      "change": 37,
      "rel_growth": 1.69,
      "trend": "Emerging",
      "total": 141,
      "impact_score": 271.5
    },
    {
      "rank": 171,
      "name": "Srinivagilu Main Road,  ST Bed Layout Extension",
      "lat": 12.933,
      "lon": 77.6315,
      "first": 0,
      "second": 37,
      "change": 37,
      "rel_growth": 73.17,
      "trend": "Emerging",
      "total": 37,
      "impact_score": 34.4
    },
    {
      "rank": 172,
      "name": "Residency Road,  ACR Towers",
      "lat": 12.9735,
      "lon": 77.6095,
      "first": 6,
      "second": 43,
      "change": 37,
      "rel_growth": 7.09,
      "trend": "Emerging",
      "total": 49,
      "impact_score": 70.0
    },
    {
      "rank": 173,
      "name": "BTP082 - KR Market Junction",
      "lat": 12.9635,
      "lon": 77.5795,
      "first": 15,
      "second": 52,
      "change": 37,
      "rel_growth": 3.43,
      "trend": "Emerging",
      "total": 67,
      "impact_score": 100.8
    },
    {
      "rank": 174,
      "name": "BTP192 - Urvashi Theater",
      "lat": 12.955,
      "lon": 77.5855,
      "first": 54,
      "second": 90,
      "change": 36,
      "rel_growth": 1.65,
      "trend": "Emerging",
      "total": 144,
      "impact_score": 200.1
    },
    {
      "rank": 175,
      "name": "Bellary Road,  HGH Layout",
      "lat": 13.024,
      "lon": 77.585,
      "first": 9,
      "second": 45,
      "change": 36,
      "rel_growth": 4.94,
      "trend": "Emerging",
      "total": 54,
      "impact_score": 77.6
    },
    {
      "rank": 176,
      "name": "Mims Gulmohar Road,  Gulmohar",
      "lat": 12.9855,
      "lon": 77.746,
      "first": 0,
      "second": 36,
      "change": 36,
      "rel_growth": 71.2,
      "trend": "Emerging",
      "total": 36,
      "impact_score": 73.7
    },
    {
      "rank": 177,
      "name": "80 Feet Ring Road,  Orion",
      "lat": 13.0105,
      "lon": 77.5545,
      "first": 66,
      "second": 102,
      "change": 36,
      "rel_growth": 1.53,
      "trend": "Emerging",
      "total": 168,
      "impact_score": 207.3
    },
    {
      "rank": 178,
      "name": "Sahakar Nagar Road,  Olivia",
      "lat": 13.071,
      "lon": 77.5885,
      "first": 11,
      "second": 47,
      "change": 36,
      "rel_growth": 4.23,
      "trend": "Emerging",
      "total": 58,
      "impact_score": 42.8
    },
    {
      "rank": 179,
      "name": "Whitefield Road,  VR Mall",
      "lat": 12.996,
      "lon": 77.695,
      "first": 37,
      "second": 73,
      "change": 36,
      "rel_growth": 1.95,
      "trend": "Emerging",
      "total": 110,
      "impact_score": 389.7
    },
    {
      "rank": 180,
      "name": "Sri Sri Sri Tiruchi Mahaswamiji Road,  Gopalan Arcade",
      "lat": 12.9355,
      "lon": 77.518,
      "first": 12,
      "second": 48,
      "change": 36,
      "rel_growth": 3.96,
      "trend": "Emerging",
      "total": 60,
      "impact_score": 62.6
    },
    {
      "rank": 181,
      "name": "Ayyappa Temple Road,  Fortune Acacia",
      "lat": 13.07,
      "lon": 77.5875,
      "first": 60,
      "second": 96,
      "change": 36,
      "rel_growth": 1.58,
      "trend": "Emerging",
      "total": 156,
      "impact_score": 148.6
    },
    {
      "rank": 182,
      "name": "BTP182 - 19th Main Junction, Rajajinagar",
      "lat": 12.998,
      "lon": 77.552,
      "first": 30,
      "second": 66,
      "change": 36,
      "rel_growth": 2.18,
      "trend": "Emerging",
      "total": 96,
      "impact_score": 85.7
    },
    {
      "rank": 183,
      "name": "BTP130 - GD Mara Junction",
      "lat": 12.908,
      "lon": 77.602,
      "first": 0,
      "second": 35,
      "change": 35,
      "rel_growth": 69.22,
      "trend": "Emerging",
      "total": 35,
      "impact_score": 22.9
    },
    {
      "rank": 184,
      "name": "17th Cross Road,  Sector 7",
      "lat": 12.9125,
      "lon": 77.6335,
      "first": 53,
      "second": 88,
      "change": 35,
      "rel_growth": 1.64,
      "trend": "Emerging",
      "total": 141,
      "impact_score": 102.4
    },
    {
      "rank": 185,
      "name": "Residency Road,  ACR Towers",
      "lat": 12.974,
      "lon": 77.6095,
      "first": 2,
      "second": 37,
      "change": 35,
      "rel_growth": 18.29,
      "trend": "Emerging",
      "total": 39,
      "impact_score": 38.8
    },
    {
      "rank": 186,
      "name": "Kaggadaspura Main Road,  Gopalan Grand Mall",
      "lat": 12.9935,
      "lon": 77.6635,
      "first": 0,
      "second": 34,
      "change": 34,
      "rel_growth": 67.24,
      "trend": "Emerging",
      "total": 34,
      "impact_score": 27.6
    },
    {
      "rank": 187,
      "name": "20th Main Road,  Ganapathinagar",
      "lat": 13.064,
      "lon": 77.5905,
      "first": 0,
      "second": 34,
      "change": 34,
      "rel_growth": 67.24,
      "trend": "Emerging",
      "total": 34,
      "impact_score": 23.2
    },
    {
      "rank": 188,
      "name": "Old Tharagupete Cross Road,  Suraj Junction",
      "lat": 12.969,
      "lon": 77.577,
      "first": 1,
      "second": 35,
      "change": 34,
      "rel_growth": 34.61,
      "trend": "Emerging",
      "total": 36,
      "impact_score": 30.9
    },
    {
      "rank": 189,
      "name": "Siddavanahalli Krishna Sharma Road,  Malleshwaram",
      "lat": 13.0005,
      "lon": 77.5695,
      "first": 14,
      "second": 48,
      "change": 34,
      "rel_growth": 3.39,
      "trend": "Emerging",
      "total": 62,
      "impact_score": 75.8
    },
    {
      "rank": 190,
      "name": "Devasandra Main Road,  Nanjamma Layout",
      "lat": 13.008,
      "lon": 77.697,
      "first": 0,
      "second": 34,
      "change": 34,
      "rel_growth": 67.24,
      "trend": "Emerging",
      "total": 34,
      "impact_score": 176.5
    },
    {
      "rank": 191,
      "name": "BTP211 - Central Street Junction",
      "lat": 12.982,
      "lon": 77.6055,
      "first": 14,
      "second": 48,
      "change": 34,
      "rel_growth": 3.39,
      "trend": "Emerging",
      "total": 62,
      "impact_score": 47.1
    },
    {
      "rank": 192,
      "name": "Old Airport Road,  HAL Circle",
      "lat": 12.958,
      "lon": 77.6685,
      "first": 13,
      "second": 47,
      "change": 34,
      "rel_growth": 3.58,
      "trend": "Emerging",
      "total": 60,
      "impact_score": 49.1
    },
    {
      "rank": 193,
      "name": "Doddakannelli Road,  Mayfair Anthem",
      "lat": 12.9275,
      "lon": 77.695,
      "first": 5,
      "second": 39,
      "change": 34,
      "rel_growth": 7.71,
      "trend": "Emerging",
      "total": 44,
      "impact_score": 197.5
    },
    {
      "rank": 194,
      "name": "MS Ramaiah Road,  Mattikere Layout",
      "lat": 13.0335,
      "lon": 77.558,
      "first": 4,
      "second": 38,
      "change": 34,
      "rel_growth": 9.39,
      "trend": "Emerging",
      "total": 42,
      "impact_score": 92.6
    },
    {
      "rank": 195,
      "name": "BTP011 - RR Kalyana Mantapa, Dr. Rajkumar Road",
      "lat": 12.993,
      "lon": 77.5525,
      "first": 50,
      "second": 84,
      "change": 34,
      "rel_growth": 1.66,
      "trend": "Emerging",
      "total": 134,
      "impact_score": 269.4
    },
    {
      "rank": 196,
      "name": "BTP023 - Mahalaxmi Layout Entrance",
      "lat": 13.0105,
      "lon": 77.55,
      "first": 30,
      "second": 64,
      "change": 34,
      "rel_growth": 2.11,
      "trend": "Emerging",
      "total": 94,
      "impact_score": 148.1
    },
    {
      "rank": 197,
      "name": "BTP106 - VV Puram College",
      "lat": 12.952,
      "lon": 77.577,
      "first": 1,
      "second": 35,
      "change": 34,
      "rel_growth": 34.61,
      "trend": "Emerging",
      "total": 36,
      "impact_score": 45.4
    },
    {
      "rank": 198,
      "name": "Rajatha Bhavana Road,  Dr K Shivaramakarantha Circle",
      "lat": 13.051,
      "lon": 77.5525,
      "first": 8,
      "second": 42,
      "change": 34,
      "rel_growth": 5.19,
      "trend": "Emerging",
      "total": 50,
      "impact_score": 113.2
    },
    {
      "rank": 199,
      "name": "Triveni Road,  Yeshwanthapura Circle",
      "lat": 13.019,
      "lon": 77.558,
      "first": 5,
      "second": 38,
      "change": 33,
      "rel_growth": 7.52,
      "trend": "Emerging",
      "total": 43,
      "impact_score": 32.3
    },
    {
      "rank": 200,
      "name": "Allalasandra Main Road,  Taralabalu Enclave",
      "lat": 13.093,
      "lon": 77.594,
      "first": 31,
      "second": 64,
      "change": 33,
      "rel_growth": 2.04,
      "trend": "Emerging",
      "total": 95,
      "impact_score": 65.2
    },
    {
      "rank": 201,
      "name": "Outer Ring Road,  Eldorado Apartment",
      "lat": 12.952,
      "lon": 77.7,
      "first": 17,
      "second": 50,
      "change": 33,
      "rel_growth": 2.91,
      "trend": "Emerging",
      "total": 67,
      "impact_score": 434.6
    },
    {
      "rank": 202,
      "name": "60 Feet Road,  Veerabhadra Nagara Circle",
      "lat": 12.9385,
      "lon": 77.5335,
      "first": 1,
      "second": 34,
      "change": 33,
      "rel_growth": 33.62,
      "trend": "Emerging",
      "total": 35,
      "impact_score": 48.3
    },
    {
      "rank": 203,
      "name": "Unnamed Road,  Begur Chikkanahalli",
      "lat": 13.187,
      "lon": 77.6805,
      "first": 53,
      "second": 86,
      "change": 33,
      "rel_growth": 1.6,
      "trend": "Emerging",
      "total": 139,
      "impact_score": 246.7
    },
    {
      "rank": 204,
      "name": "Hosur Road,  Chikka Biddappa Layout",
      "lat": 12.8935,
      "lon": 77.637,
      "first": 33,
      "second": 66,
      "change": 33,
      "rel_growth": 1.98,
      "trend": "Emerging",
      "total": 99,
      "impact_score": 158.0
    },
    {
      "rank": 205,
      "name": "BTP167 - JC Road Junction",
      "lat": 12.9605,
      "lon": 77.58,
      "first": 0,
      "second": 33,
      "change": 33,
      "rel_growth": 65.26,
      "trend": "Emerging",
      "total": 33,
      "impact_score": 52.4
    },
    {
      "rank": 206,
      "name": "Old Madras Road,  Gopalan Signature Mall",
      "lat": 12.993,
      "lon": 77.6615,
      "first": 11,
      "second": 44,
      "change": 33,
      "rel_growth": 3.96,
      "trend": "Emerging",
      "total": 55,
      "impact_score": 46.7
    },
    {
      "rank": 207,
      "name": "St John Road,  Shree Circle",
      "lat": 12.983,
      "lon": 77.613,
      "first": 5,
      "second": 38,
      "change": 33,
      "rel_growth": 7.52,
      "trend": "Emerging",
      "total": 43,
      "impact_score": 70.0
    },
    {
      "rank": 208,
      "name": "Outer Ring Road,  Vajram Onyx",
      "lat": 12.932,
      "lon": 77.688,
      "first": 24,
      "second": 56,
      "change": 32,
      "rel_growth": 2.31,
      "trend": "Emerging",
      "total": 80,
      "impact_score": 242.6
    },
    {
      "rank": 209,
      "name": "BTP204 - ESI Hospital, Rajajinagar",
      "lat": 12.99,
      "lon": 77.553,
      "first": 16,
      "second": 48,
      "change": 32,
      "rel_growth": 2.97,
      "trend": "Emerging",
      "total": 64,
      "impact_score": 82.5
    },
    {
      "rank": 210,
      "name": "Magadi Main Road,  Hanumantharayan Palya",
      "lat": 12.989,
      "lon": 77.5005,
      "first": 3,
      "second": 35,
      "change": 32,
      "rel_growth": 11.54,
      "trend": "Emerging",
      "total": 38,
      "impact_score": 26.1
    },
    {
      "rank": 211,
      "name": "BTP083 - AS Char Street, Mysore Road",
      "lat": 12.9645,
      "lon": 77.574,
      "first": 48,
      "second": 80,
      "change": 32,
      "rel_growth": 1.65,
      "trend": "Emerging",
      "total": 128,
      "impact_score": 412.3
    },
    {
      "rank": 212,
      "name": "Sri Sri Sri Balagangadharanatha Swamy Road,  Krishna Block",
      "lat": 12.9935,
      "lon": 77.574,
      "first": 1,
      "second": 32,
      "change": 31,
      "rel_growth": 31.64,
      "trend": "Emerging",
      "total": 33,
      "impact_score": 25.2
    },
    {
      "rank": 213,
      "name": "BTP082 - KR Market Junction",
      "lat": 12.964,
      "lon": 77.579,
      "first": 17,
      "second": 48,
      "change": 31,
      "rel_growth": 2.79,
      "trend": "Emerging",
      "total": 65,
      "impact_score": 93.1
    },
    {
      "rank": 214,
      "name": "BTP137 - Madiwala Traffic PS Junction",
      "lat": 12.92,
      "lon": 77.621,
      "first": 3,
      "second": 34,
      "change": 31,
      "rel_growth": 11.21,
      "trend": "Emerging",
      "total": 37,
      "impact_score": 94.2
    },
    {
      "rank": 215,
      "name": "80 Feet Road,  Block 2",
      "lat": 13.028,
      "lon": 77.5735,
      "first": 52,
      "second": 83,
      "change": 31,
      "rel_growth": 1.58,
      "trend": "Emerging",
      "total": 135,
      "impact_score": 178.8
    },
    {
      "rank": 216,
      "name": "Sri Sri Sri Tiruchi Mahaswamiji Road,  Gopalan Arcade",
      "lat": 12.936,
      "lon": 77.518,
      "first": 15,
      "second": 46,
      "change": 31,
      "rel_growth": 3.03,
      "trend": "Emerging",
      "total": 61,
      "impact_score": 57.3
    },
    {
      "rank": 217,
      "name": "BTP135 - UCO Bank Junction",
      "lat": 12.9345,
      "lon": 77.616,
      "first": 6,
      "second": 37,
      "change": 31,
      "rel_growth": 6.1,
      "trend": "Emerging",
      "total": 43,
      "impact_score": 35.4
    },
    {
      "rank": 218,
      "name": "BTP096 - Gali Anjaneya Temple",
      "lat": 12.952,
      "lon": 77.541,
      "first": 14,
      "second": 45,
      "change": 31,
      "rel_growth": 3.18,
      "trend": "Emerging",
      "total": 59,
      "impact_score": 109.4
    },
    {
      "rank": 219,
      "name": "BTP155 - Katriguppe Junction",
      "lat": 12.9265,
      "lon": 77.551,
      "first": 25,
      "second": 56,
      "change": 31,
      "rel_growth": 2.22,
      "trend": "Emerging",
      "total": 81,
      "impact_score": 77.8
    },
    {
      "rank": 220,
      "name": "BTP186 - 9th Cross, 4th Main, Jayanagar",
      "lat": 12.939,
      "lon": 77.584,
      "first": 12,
      "second": 43,
      "change": 31,
      "rel_growth": 3.54,
      "trend": "Emerging",
      "total": 55,
      "impact_score": 39.9
    },
    {
      "rank": 221,
      "name": "Whitefield Road,  VR Mall",
      "lat": 12.996,
      "lon": 77.6945,
      "first": 41,
      "second": 72,
      "change": 31,
      "rel_growth": 1.74,
      "trend": "Emerging",
      "total": 113,
      "impact_score": 218.6
    },
    {
      "rank": 222,
      "name": "Hesaraghatta Main Road,  Defence Colony",
      "lat": 13.055,
      "lon": 77.5075,
      "first": 17,
      "second": 48,
      "change": 31,
      "rel_growth": 2.79,
      "trend": "Emerging",
      "total": 65,
      "impact_score": 96.7
    },
    {
      "rank": 223,
      "name": "Hosur Road,  Krimson Square",
      "lat": 12.9115,
      "lon": 77.6255,
      "first": 0,
      "second": 30,
      "change": 30,
      "rel_growth": 59.33,
      "trend": "Emerging",
      "total": 30,
      "impact_score": 21.5
    },
    {
      "rank": 224,
      "name": "Srinivagilu Main Road,  ST Bed Layout Extension",
      "lat": 12.932,
      "lon": 77.6325,
      "first": 0,
      "second": 30,
      "change": 30,
      "rel_growth": 59.33,
      "trend": "Emerging",
      "total": 30,
      "impact_score": 64.5
    },
    {
      "rank": 225,
      "name": "Srinivagilu Main Road,  ST Bed Layout Extension",
      "lat": 12.9325,
      "lon": 77.6315,
      "first": 42,
      "second": 72,
      "change": 30,
      "rel_growth": 1.7,
      "trend": "Emerging",
      "total": 114,
      "impact_score": 113.7
    },
    {
      "rank": 226,
      "name": "BTP083 - AS Char Street, Mysore Road",
      "lat": 12.9645,
      "lon": 77.575,
      "first": 26,
      "second": 56,
      "change": 30,
      "rel_growth": 2.13,
      "trend": "Emerging",
      "total": 82,
      "impact_score": 149.4
    },
    {
      "rank": 227,
      "name": "Siddhapura Road,  Siddapura Circle",
      "lat": 12.9465,
      "lon": 77.588,
      "first": 11,
      "second": 41,
      "change": 30,
      "rel_growth": 3.69,
      "trend": "Emerging",
      "total": 52,
      "impact_score": 40.8
    },
    {
      "rank": 228,
      "name": "BTP219 - Canara Bank Junction",
      "lat": 12.9315,
      "lon": 77.584,
      "first": 21,
      "second": 51,
      "change": 30,
      "rel_growth": 2.4,
      "trend": "Emerging",
      "total": 72,
      "impact_score": 81.9
    },
    {
      "rank": 229,
      "name": "1st Main Road,  Renaissance Temple Apartment",
      "lat": 13.0125,
      "lon": 77.5525,
      "first": 17,
      "second": 47,
      "change": 30,
      "rel_growth": 2.73,
      "trend": "Emerging",
      "total": 64,
      "impact_score": 79.6
    },
    {
      "rank": 230,
      "name": "Unnamed Road,  Begur Chikkanahalli",
      "lat": 13.185,
      "lon": 77.6795,
      "first": 25,
      "second": 54,
      "change": 29,
      "rel_growth": 2.14,
      "trend": "Emerging",
      "total": 79,
      "impact_score": 211.7
    },
    {
      "rank": 231,
      "name": "Sri Venkataranga Ayangar Road,  Acharya Sri Ramanuja Circle",
      "lat": 13.0005,
      "lon": 77.5715,
      "first": 42,
      "second": 71,
      "change": 29,
      "rel_growth": 1.67,
      "trend": "Emerging",
      "total": 113,
      "impact_score": 139.5
    },
    {
      "rank": 232,
      "name": "BTP096 - Gali Anjaneya Temple",
      "lat": 12.952,
      "lon": 77.5405,
      "first": 43,
      "second": 72,
      "change": 29,
      "rel_growth": 1.66,
      "trend": "Emerging",
      "total": 115,
      "impact_score": 232.2
    },
    {
      "rank": 233,
      "name": "BTP104 - Medical College Circle",
      "lat": 12.9605,
      "lon": 77.5775,
      "first": 22,
      "second": 51,
      "change": 29,
      "rel_growth": 2.29,
      "trend": "Emerging",
      "total": 73,
      "impact_score": 150.8
    },
    {
      "rank": 234,
      "name": "Outer Ring Road,  Bellandur Circle",
      "lat": 12.9265,
      "lon": 77.677,
      "first": 18,
      "second": 47,
      "change": 29,
      "rel_growth": 2.58,
      "trend": "Emerging",
      "total": 65,
      "impact_score": 94.1
    },
    {
      "rank": 235,
      "name": "BTP082 - KR Market Junction",
      "lat": 12.963,
      "lon": 77.5765,
      "first": 42,
      "second": 71,
      "change": 29,
      "rel_growth": 1.67,
      "trend": "Emerging",
      "total": 113,
      "impact_score": 198.0
    },
    {
      "rank": 236,
      "name": "Parappana Agrahara Main Road,  Channakeshava Nagar",
      "lat": 12.871,
      "lon": 77.654,
      "first": 1,
      "second": 30,
      "change": 29,
      "rel_growth": 29.67,
      "trend": "Emerging",
      "total": 31,
      "impact_score": 25.0
    },
    {
      "rank": 237,
      "name": "Old Madras Road,  Gopalan Signature Mall",
      "lat": 12.993,
      "lon": 77.662,
      "first": 19,
      "second": 48,
      "change": 29,
      "rel_growth": 2.5,
      "trend": "Emerging",
      "total": 67,
      "impact_score": 47.4
    },
    {
      "rank": 238,
      "name": "BTP204 - ESI Hospital, Rajajinagar",
      "lat": 12.992,
      "lon": 77.5525,
      "first": 29,
      "second": 58,
      "change": 29,
      "rel_growth": 1.98,
      "trend": "Emerging",
      "total": 87,
      "impact_score": 173.7
    },
    {
      "rank": 239,
      "name": "Kadubeesanahalli Underpass,  Indiqube Alpha",
      "lat": 12.94,
      "lon": 77.696,
      "first": 2,
      "second": 31,
      "change": 29,
      "rel_growth": 15.33,
      "trend": "Emerging",
      "total": 33,
      "impact_score": 122.9
    },
    {
      "rank": 240,
      "name": "Neeladri Road,  Neeladri Nagar",
      "lat": 12.8415,
      "lon": 77.647,
      "first": 25,
      "second": 54,
      "change": 29,
      "rel_growth": 2.14,
      "trend": "Emerging",
      "total": 79,
      "impact_score": 95.4
    },
    {
      "rank": 241,
      "name": "New Horizon College Road,  New Horizon College of Engineering",
      "lat": 12.9335,
      "lon": 77.6905,
      "first": 9,
      "second": 38,
      "change": 29,
      "rel_growth": 4.18,
      "trend": "Emerging",
      "total": 47,
      "impact_score": 63.2
    },
    {
      "rank": 242,
      "name": "Hosur Road,  Salarpuria Sattva Alexandria Tech Park",
      "lat": 12.8405,
      "lon": 77.677,
      "first": 9,
      "second": 37,
      "change": 28,
      "rel_growth": 4.07,
      "trend": "Emerging",
      "total": 46,
      "impact_score": 66.7
    },
    {
      "rank": 243,
      "name": "BTP027 - Modi Bridge Junction",
      "lat": 12.9985,
      "lon": 77.5485,
      "first": 4,
      "second": 32,
      "change": 28,
      "rel_growth": 7.91,
      "trend": "Emerging",
      "total": 36,
      "impact_score": 22.2
    },
    {
      "rank": 244,
      "name": "BTP192 - Urvashi Theater",
      "lat": 12.958,
      "lon": 77.5865,
      "first": 42,
      "second": 70,
      "change": 28,
      "rel_growth": 1.65,
      "trend": "Emerging",
      "total": 112,
      "impact_score": 126.6
    },
    {
      "rank": 245,
      "name": "BTP051 - Safina Plaza Junction",
      "lat": 12.9825,
      "lon": 77.6075,
      "first": 14,
      "second": 42,
      "change": 28,
      "rel_growth": 2.97,
      "trend": "Emerging",
      "total": 56,
      "impact_score": 38.8
    },
    {
      "rank": 246,
      "name": "Whitefield Road,  Police Quarters Singayyanapalya",
      "lat": 12.996,
      "lon": 77.694,
      "first": 12,
      "second": 40,
      "change": 28,
      "rel_growth": 3.3,
      "trend": "Emerging",
      "total": 52,
      "impact_score": 80.8
    },
    {
      "rank": 247,
      "name": "6th Cross Road,  Bommanahalli Circle",
      "lat": 12.907,
      "lon": 77.6295,
      "first": 5,
      "second": 33,
      "change": 28,
      "rel_growth": 6.53,
      "trend": "Emerging",
      "total": 38,
      "impact_score": 62.8
    },
    {
      "rank": 248,
      "name": "Whitefield Road,  VR Mall",
      "lat": 12.9955,
      "lon": 77.6955,
      "first": 18,
      "second": 46,
      "change": 28,
      "rel_growth": 2.53,
      "trend": "Emerging",
      "total": 64,
      "impact_score": 215.8
    },
    {
      "rank": 249,
      "name": "MBT Road,  Tin Factory Junction",
      "lat": 12.997,
      "lon": 77.669,
      "first": 8,
      "second": 36,
      "change": 28,
      "rel_growth": 4.45,
      "trend": "Emerging",
      "total": 44,
      "impact_score": 106.6
    },
    {
      "rank": 250,
      "name": "Thanisandra Main Road,  Aswath Nagar Circle",
      "lat": 13.05,
      "lon": 77.63,
      "first": 0,
      "second": 28,
      "change": 28,
      "rel_growth": 55.38,
      "trend": "Emerging",
      "total": 28,
      "impact_score": 19.4
    },
    {
      "rank": 251,
      "name": "BTP024 - NPS, Vijayanagar",
      "lat": 12.981,
      "lon": 77.5485,
      "first": 6,
      "second": 34,
      "change": 28,
      "rel_growth": 5.6,
      "trend": "Emerging",
      "total": 40,
      "impact_score": 62.1
    },
    {
      "rank": 252,
      "name": "BTP218 - Syndicate Bank Junction",
      "lat": 12.933,
      "lon": 77.5835,
      "first": 10,
      "second": 38,
      "change": 28,
      "rel_growth": 3.76,
      "trend": "Emerging",
      "total": 48,
      "impact_score": 41.4
    },
    {
      "rank": 253,
      "name": "BTP061 - Bhashyam Circle",
      "lat": 12.986,
      "lon": 77.554,
      "first": 6,
      "second": 34,
      "change": 28,
      "rel_growth": 5.6,
      "trend": "Emerging",
      "total": 40,
      "impact_score": 48.6
    },
    {
      "rank": 254,
      "name": "BTP137 - Madiwala Traffic PS Junction",
      "lat": 12.9225,
      "lon": 77.6225,
      "first": 4,
      "second": 32,
      "change": 28,
      "rel_growth": 7.91,
      "trend": "Emerging",
      "total": 36,
      "impact_score": 26.8
    },
    {
      "rank": 255,
      "name": "Broadway Road,  Sulthangunta",
      "lat": 12.9895,
      "lon": 77.602,
      "first": 12,
      "second": 40,
      "change": 28,
      "rel_growth": 3.3,
      "trend": "Emerging",
      "total": 52,
      "impact_score": 62.7
    },
    {
      "rank": 256,
      "name": "BTP028 - Vijayanagar Bus Stand Junction",
      "lat": 12.972,
      "lon": 77.5375,
      "first": 54,
      "second": 82,
      "change": 28,
      "rel_growth": 1.5,
      "trend": "Emerging",
      "total": 136,
      "impact_score": 122.9
    },
    {
      "rank": 257,
      "name": "Bannerghatta Main Road,  Royal Meenakshi Mall",
      "lat": 12.8755,
      "lon": 77.5955,
      "first": 0,
      "second": 28,
      "change": 28,
      "rel_growth": 55.38,
      "trend": "Emerging",
      "total": 28,
      "impact_score": 18.8
    },
    {
      "rank": 258,
      "name": "BTP135 - UCO Bank Junction",
      "lat": 12.936,
      "lon": 77.616,
      "first": 45,
      "second": 72,
      "change": 27,
      "rel_growth": 1.58,
      "trend": "Emerging",
      "total": 117,
      "impact_score": 137.1
    },
    {
      "rank": 259,
      "name": "BTP024 - NPS, Vijayanagar",
      "lat": 12.983,
      "lon": 77.549,
      "first": 3,
      "second": 30,
      "change": 27,
      "rel_growth": 9.89,
      "trend": "Emerging",
      "total": 33,
      "impact_score": 55.8
    },
    {
      "rank": 260,
      "name": "Dr Rajkumar Puniya Bhoomi Road,  Sumnahalli Junction",
      "lat": 12.987,
      "lon": 77.5195,
      "first": 8,
      "second": 35,
      "change": 27,
      "rel_growth": 4.33,
      "trend": "Emerging",
      "total": 43,
      "impact_score": 27.9
    },
    {
      "rank": 261,
      "name": "MS Ramaiah Road,  Mattikere Layout",
      "lat": 13.033,
      "lon": 77.5585,
      "first": 6,
      "second": 33,
      "change": 27,
      "rel_growth": 5.44,
      "trend": "Emerging",
      "total": 39,
      "impact_score": 92.1
    },
    {
      "rank": 262,
      "name": "BTP172 - Nanjappa Circle",
      "lat": 12.9605,
      "lon": 77.6015,
      "first": 3,
      "second": 30,
      "change": 27,
      "rel_growth": 9.89,
      "trend": "Emerging",
      "total": 33,
      "impact_score": 34.5
    },
    {
      "rank": 263,
      "name": "J Lingaiah Road,  Shree MG Seshadri Circle",
      "lat": 12.99,
      "lon": 77.5745,
      "first": 14,
      "second": 41,
      "change": 27,
      "rel_growth": 2.9,
      "trend": "Emerging",
      "total": 55,
      "impact_score": 76.2
    },
    {
      "rank": 264,
      "name": "Bhadrappa Flyover,  Muniyappa Layout",
      "lat": 13.0475,
      "lon": 77.574,
      "first": 2,
      "second": 29,
      "change": 27,
      "rel_growth": 14.34,
      "trend": "Emerging",
      "total": 31,
      "impact_score": 42.4
    },
    {
      "rank": 265,
      "name": "BTP135 - UCO Bank Junction",
      "lat": 12.935,
      "lon": 77.614,
      "first": 5,
      "second": 32,
      "change": 27,
      "rel_growth": 6.33,
      "trend": "Emerging",
      "total": 37,
      "impact_score": 29.7
    },
    {
      "rank": 266,
      "name": "BTP083 - AS Char Street, Mysore Road",
      "lat": 12.9645,
      "lon": 77.5745,
      "first": 37,
      "second": 64,
      "change": 27,
      "rel_growth": 1.71,
      "trend": "Emerging",
      "total": 101,
      "impact_score": 159.4
    },
    {
      "rank": 267,
      "name": "BTP083 - AS Char Street, Mysore Road",
      "lat": 12.9655,
      "lon": 77.574,
      "first": 10,
      "second": 37,
      "change": 27,
      "rel_growth": 3.66,
      "trend": "Emerging",
      "total": 47,
      "impact_score": 106.5
    },
    {
      "rank": 268,
      "name": "BTP203 - RRMR Junction",
      "lat": 12.968,
      "lon": 77.5925,
      "first": 2,
      "second": 29,
      "change": 27,
      "rel_growth": 14.34,
      "trend": "Emerging",
      "total": 31,
      "impact_score": 49.4
    },
    {
      "rank": 269,
      "name": "Allalasandra Main Road,  Yelahanka Circle",
      "lat": 13.094,
      "lon": 77.594,
      "first": 6,
      "second": 33,
      "change": 27,
      "rel_growth": 5.44,
      "trend": "Emerging",
      "total": 39,
      "impact_score": 28.6
    },
    {
      "rank": 270,
      "name": "Neeladri Road,  Doddathoguru Cross Junction",
      "lat": 12.843,
      "lon": 77.6445,
      "first": 5,
      "second": 31,
      "change": 26,
      "rel_growth": 6.13,
      "trend": "Emerging",
      "total": 36,
      "impact_score": 41.7
    },
    {
      "rank": 271,
      "name": "Sri Sankasta Hara Ganapati Temple Road,  Ramesh Babu Circle",
      "lat": 12.9645,
      "lon": 77.5425,
      "first": 1,
      "second": 27,
      "change": 26,
      "rel_growth": 26.7,
      "trend": "Emerging",
      "total": 28,
      "impact_score": 28.2
    },
    {
      "rank": 272,
      "name": "Vibgyor High School Road,  Samhita Rainbow MTB Apartment",
      "lat": 12.951,
      "lon": 77.7175,
      "first": 1,
      "second": 27,
      "change": 26,
      "rel_growth": 26.7,
      "trend": "Emerging",
      "total": 28,
      "impact_score": 94.9
    },
    {
      "rank": 273,
      "name": "Unnamed Road,  Begur Chikkanahalli",
      "lat": 13.187,
      "lon": 77.6815,
      "first": 4,
      "second": 30,
      "change": 26,
      "rel_growth": 7.42,
      "trend": "Emerging",
      "total": 34,
      "impact_score": 51.3
    },
    {
      "rank": 274,
      "name": "BTP205 - Modi Hospital Junction",
      "lat": 12.9975,
      "lon": 77.5465,
      "first": 25,
      "second": 51,
      "change": 26,
      "rel_growth": 2.02,
      "trend": "Emerging",
      "total": 76,
      "impact_score": 123.9
    },
    {
      "rank": 275,
      "name": "BTP024 - NPS, Vijayanagar",
      "lat": 12.9825,
      "lon": 77.549,
      "first": 11,
      "second": 37,
      "change": 26,
      "rel_growth": 3.33,
      "trend": "Emerging",
      "total": 48,
      "impact_score": 84.9
    },
    {
      "rank": 276,
      "name": "BTP117 - 9th Cross, Kanakapura Road",
      "lat": 12.9105,
      "lon": 77.5735,
      "first": 0,
      "second": 26,
      "change": 26,
      "rel_growth": 51.42,
      "trend": "Emerging",
      "total": 26,
      "impact_score": 47.4
    },
    {
      "rank": 277,
      "name": "Sri Venkataranga Ayangar Road,  RR Palace",
      "lat": 12.999,
      "lon": 77.5715,
      "first": 25,
      "second": 51,
      "change": 26,
      "rel_growth": 2.02,
      "trend": "Emerging",
      "total": 76,
      "impact_score": 105.3
    },
    {
      "rank": 278,
      "name": "MSR College Road,  MS Ramaiah Hospital Junction",
      "lat": 13.0285,
      "lon": 77.571,
      "first": 0,
      "second": 26,
      "change": 26,
      "rel_growth": 51.42,
      "trend": "Emerging",
      "total": 26,
      "impact_score": 18.8
    },
    {
      "rank": 279,
      "name": "BTP082 - KR Market Junction",
      "lat": 12.9635,
      "lon": 77.579,
      "first": 21,
      "second": 47,
      "change": 26,
      "rel_growth": 2.21,
      "trend": "Emerging",
      "total": 68,
      "impact_score": 116.9
    },
    {
      "rank": 280,
      "name": "Mumbai Bengaluru Highway,  RNS Shanthi Nivas",
      "lat": 13.0275,
      "lon": 77.5435,
      "first": 0,
      "second": 26,
      "change": 26,
      "rel_growth": 51.42,
      "trend": "Emerging",
      "total": 26,
      "impact_score": 30.6
    },
    {
      "rank": 281,
      "name": "Hosur Road,  Salarpuria Sattva Alexandria Tech Park",
      "lat": 12.84,
      "lon": 77.677,
      "first": 6,
      "second": 31,
      "change": 25,
      "rel_growth": 5.11,
      "trend": "Emerging",
      "total": 37,
      "impact_score": 76.6
    },
    {
      "rank": 282,
      "name": "BTP071 - Prasanna Junction",
      "lat": 12.9745,
      "lon": 77.552,
      "first": 4,
      "second": 29,
      "change": 25,
      "rel_growth": 7.17,
      "trend": "Emerging",
      "total": 33,
      "impact_score": 30.8
    },
    {
      "rank": 283,
      "name": "80 Feet Ring Road,  Orion",
      "lat": 13.01,
      "lon": 77.5545,
      "first": 23,
      "second": 48,
      "change": 25,
      "rel_growth": 2.06,
      "trend": "Emerging",
      "total": 71,
      "impact_score": 87.9
    },
    {
      "rank": 284,
      "name": "Veera Pillai Road,  Sri Nagamma Devi Circle",
      "lat": 12.983,
      "lon": 77.6115,
      "first": 9,
      "second": 34,
      "change": 25,
      "rel_growth": 3.74,
      "trend": "Emerging",
      "total": 43,
      "impact_score": 68.9
    },
    {
      "rank": 285,
      "name": "BTP164 - 29th Main Road, BTM Layout",
      "lat": 12.915,
      "lon": 77.616,
      "first": 0,
      "second": 25,
      "change": 25,
      "rel_growth": 49.44,
      "trend": "Emerging",
      "total": 25,
      "impact_score": 17.0
    },
    {
      "rank": 286,
      "name": "1st Cross Road,  Block 2",
      "lat": 12.926,
      "lon": 77.619,
      "first": 18,
      "second": 43,
      "change": 25,
      "rel_growth": 2.36,
      "trend": "Emerging",
      "total": 61,
      "impact_score": 99.3
    },
    {
      "rank": 287,
      "name": "BTP051 - Safina Plaza Junction",
      "lat": 12.983,
      "lon": 77.6065,
      "first": 23,
      "second": 48,
      "change": 25,
      "rel_growth": 2.06,
      "trend": "Emerging",
      "total": 71,
      "impact_score": 54.0
    },
    {
      "rank": 288,
      "name": "Neeladri Road,  SNN Raj Neeladri Apartments",
      "lat": 12.842,
      "lon": 77.644,
      "first": 25,
      "second": 50,
      "change": 25,
      "rel_growth": 1.98,
      "trend": "Emerging",
      "total": 75,
      "impact_score": 105.9
    },
    {
      "rank": 289,
      "name": "1st Main Road,  Ramaiah Reddy Layout",
      "lat": 12.884,
      "lon": 77.6415,
      "first": 7,
      "second": 32,
      "change": 25,
      "rel_growth": 4.52,
      "trend": "Emerging",
      "total": 39,
      "impact_score": 123.4
    },
    {
      "rank": 290,
      "name": "Hosa Road,  Channakeshava Nagar",
      "lat": 12.8705,
      "lon": 77.6535,
      "first": 2,
      "second": 27,
      "change": 25,
      "rel_growth": 13.35,
      "trend": "Emerging",
      "total": 29,
      "impact_score": 30.3
    },
    {
      "rank": 291,
      "name": "Bagalur Road,  New Bagalur Layout",
      "lat": 13.006,
      "lon": 77.6205,
      "first": 0,
      "second": 25,
      "change": 25,
      "rel_growth": 49.44,
      "trend": "Emerging",
      "total": 25,
      "impact_score": 26.4
    },
    {
      "rank": 292,
      "name": "BTP130 - GD Mara Junction",
      "lat": 12.9085,
      "lon": 77.6015,
      "first": 1,
      "second": 26,
      "change": 25,
      "rel_growth": 25.71,
      "trend": "Emerging",
      "total": 27,
      "impact_score": 27.5
    },
    {
      "rank": 293,
      "name": "BTP080 - NR Road, SP Road Junction",
      "lat": 12.964,
      "lon": 77.5825,
      "first": 47,
      "second": 72,
      "change": 25,
      "rel_growth": 1.51,
      "trend": "Emerging",
      "total": 119,
      "impact_score": 195.8
    },
    {
      "rank": 294,
      "name": "Seppings Road,  Brahma Kumari Jagdamba Circle",
      "lat": 12.987,
      "lon": 77.6085,
      "first": 0,
      "second": 24,
      "change": 24,
      "rel_growth": 47.46,
      "trend": "Emerging",
      "total": 24,
      "impact_score": 18.8
    },
    {
      "rank": 295,
      "name": "BTP028 - Vijayanagar Bus Stand Junction",
      "lat": 12.9725,
      "lon": 77.538,
      "first": 34,
      "second": 58,
      "change": 24,
      "rel_growth": 1.69,
      "trend": "Emerging",
      "total": 92,
      "impact_score": 112.0
    },
    {
      "rank": 296,
      "name": "BTP155 - Katriguppe Junction",
      "lat": 12.9265,
      "lon": 77.5505,
      "first": 17,
      "second": 41,
      "change": 24,
      "rel_growth": 2.38,
      "trend": "Emerging",
      "total": 58,
      "impact_score": 57.3
    },
    {
      "rank": 297,
      "name": "BTP170 - Dr. Bheem Rao Palace, Chord Road",
      "lat": 12.991,
      "lon": 77.5525,
      "first": 15,
      "second": 39,
      "change": 24,
      "rel_growth": 2.57,
      "trend": "Emerging",
      "total": 54,
      "impact_score": 94.5
    },
    {
      "rank": 298,
      "name": "Sirur Park Road,  Shri Rajiv Gandhi Circle",
      "lat": 12.99,
      "lon": 77.573,
      "first": 26,
      "second": 50,
      "change": 24,
      "rel_growth": 1.9,
      "trend": "Emerging",
      "total": 76,
      "impact_score": 72.3
    },
    {
      "rank": 299,
      "name": "BTP182 - 19th Main Junction, Rajajinagar",
      "lat": 12.9985,
      "lon": 77.551,
      "first": 19,
      "second": 43,
      "change": 24,
      "rel_growth": 2.24,
      "trend": "Emerging",
      "total": 62,
      "impact_score": 75.6
    },
    {
      "rank": 300,
      "name": "BTP184 - Lalbagh West Gate",
      "lat": 12.948,
      "lon": 77.58,
      "first": 33,
      "second": 57,
      "change": 24,
      "rel_growth": 1.71,
      "trend": "Emerging",
      "total": 90,
      "impact_score": 80.4
    }
  ]
}